
[
  {
    "img": "https://a0.muscache.com/im/pictures/e2e2bf3d-cb57-4ef0-9076-1571500da682.jpg?im_w=1440",
    "location": "Private room in center of Zurich",
    "title": "Stay at this spacious House",
    "description": "1 guest · 1 bedroom · 1 bed · 1.5 shared bthrooms · Wifi · Kitchen · Free parking · Washing Machine · PetAllowed Unique · Unique  stays",
    "star": 4.73,
    "price": "€30 / night",
    "total": "€117 total",
    "lat": 47.3769,
    "long": 8.5417
  },
  {
    "img": "https://www.expatkings.com/wp-content/uploads/2018/10/Airbnb-rental-tips.-Hostmaker-1-620x349.jpg",
    "location": "Private room in center of London",
    "title": "Independant luxury studio apartment",
    "description": "2 guest · 3 bedroom · 1 bed · 1.5 shared bthrooms · Wifi · Kitchen Unique · Unique stays ",
    "star": 4.3,
    "price": "€40 / night",
    "total": "€157 total",
    "long": -0.095091,
    "lat": 51.48695
  },
  {
    "img": "https://www.smartertravel.com/wp-content/uploads/2017/07/Untitled-design-8.jpg",
    "location": "Private room in center of Newquay",
    "title": "Studio Apartments",
    "description": "4 guest · 4 bedroom · 4 bed · 2 bathrooms · Free parking · Washing Machine · PetAllowed · Outdoor getaways",
    "star": 3.8,
    "price": "€35 / night",
    "PetAllowed": "yes",
    "total": "€207 total",
    "lat": 50.4183,
    "long": -5.0811
  },
  {
    "img": "https://cdn.bisnow.net/fit?height=489&type=jpeg&url=https%3A%2F%2Fs3.amazonaws.com%2Fcdn.bisnow.net%2Fcontent%2Fimages%2F2017%2F05%2F59151d0978bbf_https_press_atairbnb_com_app_uploads_2016_12_midtown_4.jpeg&width=717&sign=FeltIPi9cOWA36nVIeDvZxwgtiCZrpUyMRdvyZviTUI",
    "location": "Private room in center of Paris",
    "title": "30 mins to  Street, Alesia",
    "description": "1 guest · 1 bedroom · 1 bed · 1.5 shared bthrooms · Wifi · Kitchen · Free parking · Washing Machine · PetAllowed",
    "star": 4.1,
    "price": "€55 / night",
    "total": "€320 total",
    "long": 2.322222,
    "lat": 48.8614
  },
  {
    "img": "https://media.cntraveler.com/photos/5a8f258bd363c34048b35aac/master/w_2250,h_1500,c_limit/airbnb-plus-london.jpg",
    "location": "Private room in center of London",
    "title": "Spacious Peaceful Modern Bedroom",
    "description": "3 guest · 1 bedroom · 1 bed · 1.5 shared bthrooms · Wifi · Free parking · Dry Cleaning · PetAllowed",
    "star": 5.0,
    "price": "€60 / night",
    "total": "€450 total",
    "long": -0.08472,
    "lat": 51.510794
  },
  {
    "img": "https://static.trip101.com/paragraph_media/pictures/001/676/061/large/969ae4bb-efd1-4fb9-a4e3-5cb3316dd3c9.jpg?1562227937",
    "location": "Private room in center of Birkenhead",
    "title": "The Blue Room In Birkenhead",
    "description": "2 guest · 1 bedroom · 1 bed · 1.5 shared bthrooms · Wifi · Washing Machine · Outdoor getaways ",
    "star": 4.23,
    "price": "€65 / night",
    "total": "€480 total",
    "long": -3.0148,
    "lat": 53.3935
  },
  {
    "img": "https://image.insider.com/585029a0dd0895bc548b4b8b?width=750&format=jpeg&auto=webp",
    "location": "London",
    "title": "5 Star Luxury Apartment",
    "description": "3 guest · 1 bedroom · 1 bed · 1.5 shared bthrooms · Wifi · Kitchen · Free parking · Washing Machine Pet allowed  · Entire homes",
    "star": 3.85,
    "price": "€90 / night",
    "total": "€650 total",
    "long": -0.109889,
    "lat": 51.521245
  },
  {
    "img": "https://www.smartertravel.com/wp-content/uploads/2017/07/Untitled-design-8.jpg",
    "location": "Paris",
    "title": "Stay in this charming Parisian house",
    "description": "1 guest · 1 bedroom · 1 bed · 1 shared bathroom · Wifi · Kitchen · Free parking · Pet allowed ",
    "star": 4.8,
    "price": "€50 / night",
    "total": "€150 total",
    "long": 2.352222,
    "lat": 48.856614
  },
  {
    "img": "https://a0.muscache.com/im/pictures/e2e2bf3d-cb57-4ef0-9076-1571500da682.jpg?im_w=1440",
    "location": "Nice",
    "title": "Independant luxury studio apartment",
    "description": "2 guests · 2 bedrooms · 1 bed · 1 bathroom · Wifi · Kitchen · Entire homes",
    "star": 4.5,
    "price": "€70 / night",
    "total": "€210 total",
    "long": 7.261953,
    "lat": 43.710173
  },
  {
    "img": "https://www.smartertravel.com/wp-content/uploads/2017/07/Untitled-design-8.jpg",
    "location": "Lyon",
    "title": "Modern studio apartments in Lyon",
    "description": "3 guests · 2 bedrooms · 2 beds · 1 bathroom · Free parking",
    "star": 4.0,
    "price": "€60 / night",
    "total": "€180 total",
    "long": 4.835659,
    "lat": 45.764043
  },
  {
    "img": "https://image.insider.com/585029a0dd0895bc548b4b8b?width=750&format=jpeg&auto=webp",
    "location": "Bordeaux",
    "title": "Spacious Peaceful Modern Bedroom",
    "description": "2 guests · 1 bedroom · 1 bed · 1 bathroom · Wifi · Free parking · Pet Allowed",
    "star": 5.0,
    "price": "€80 / night",
    "PetAllowed": "no",
    "total": "€240 total",
    "long": -0.57918,
    "lat": 44.837789
  }
]
